[
   {
      "restaurantName":"Bronco",
      "address":"39 Rue des Petites Écuries, 75010 Paris",
      "lat":48.8737815,
      "long":2.3501649,
      "ratings":[
         {
            "stars":4,
            "comment":"Un excellent restaurant, j'y reviendrai ! Par contre il vaut mieux aimer la viande."
         },
         {
            "stars":5,
            "comment":"Tout simplement mon restaurant préféré !"
         }
      ]
   },
   {
      "restaurantName":"Babalou",
      "address":"4 Rue Lamarck, 75018 Paris",
      "lat":48.8865035,
      "long":2.3442197,
      "ratings":[
         {
            "stars":5,
            "comment":"Une minuscule pizzeria délicieuse cachée juste à côté du Sacré choeur !"
         },
         {
            "stars":3,
            "comment":"J'ai trouvé ça correct, sans plus"
         }
      ]
   },
   {
      "restaurantName":"Bustronome",
      "address":"2 Avenue Kléber, 75016 Paris",
      "lat":48.854866,
      "long":2.276372,
      "ratings":[
         {
           "stars":4,
           "comment":"Un moment magique, et très chic. Serveuses adorables. "
         },
         {
           "stars":3,
           "comment":"Itinéraire fort intéressant. Menu végétarien, un vrai régale"
         }
      ]
    },
    {
        "restaurantName":"Le Ciel de Paris",
        "address":"Tour Maine Montparnasse, 56ème étage Tour Maine Montparnasse, Avenue du Maine, 75015 Pariss",
        "lat":48.844025,
        "long":2.310947,
        "ratings":[
         {
            "stars":5,
            "comment":"Très content de connaître cette adresse."
         },
         {
            "stars":2,
            "comment":"Excessivement cher pour une cuisine semie industrielle."
         }
      ]
    },
    {
        "restaurantName":"Le Cinq Restaurant",
        "address":"31 Avenue George V, 75008 Paris",
        "lat":48.872978,
        "long":2.310883,
        "ratings":[
         {
            "stars":5,
            "comment":"Parfait ! Accueil personnalisé, plats et services exceptionnels."
         },
         {
            "stars":4,
            "comment":"Classe et luxe  ! Mets excellents  ! Service pro ! "
         }
      ]
    }   
]